"id_final","name_final","elevation","z_max","z_mean","area_Ha","DV","form_DV","V","source","lon","lat"
"LID 1","Onoke",1.8888642787933,8.719,4.33343045711919,653.4732,1.49103009190934,"Convex",28317806.6779114,"LERNZmp",175.126837639398,-41.3826672675459
"LID 7","Karori Reservoir Upper",145.7346496582,19.575,10.3169754142882,2.5212,1.58114565736218,"Concave",260111.584145035,"LERNZmp",174.751846228899,-41.2924082229625
"LID 1708","Wairarapa",0.62000000476837,2.73,1.64644499158312,7026.5448,1.8092802105309,"Concave",115688194.940944,"LERNZmp",175.215578650872,-41.2364085651421
"LID 4345","Horowhenua",11,1.99,1.37239090245804,309.7072,2.06893100873072,"Concave",4250393.43705754,"LERNZmp",175.253260661985,-40.6075363674385
"LID 5042",NA,10.0371913909912,1.2,NA,13.9369883981368,NA,NA,NA,"LERNZmp",175.265724395334,-40.3417273265435
"LID 6914","Blue Lake",538.48999023438,19.42,9.55082520480022,9.8564,1.47541069075184,"Convex",941367.535485929,"LERNZmp",169.81038896158,-44.8665929129622
"LID 7408","Lake Aviemore",269,40.49,15.6169229145796,2909.752,1.15709480720521,"Convex",454413726.845439,"LERNZmp",170.292930951906,-44.6112607195852
"LID 7409","Lake Benmore",362,91,23.6625914487666,7790.0888,0.78008543237692,"Convex",1843336886.24012,"LERNZmp",170.214109761865,-44.4558845956437
"LID 7633",NA,478.465606689453,45,NA,521.399237159626,NA,NA,NA,"LERNZmp",169.326734398329,-45.366450976611
"LID 11133","Rotorua",284.87753295898,45.268,13.183043647113,8066.0632,0.873666407646436,"Convex",1063352632.25972,"LERNZmp",176.271884527316,-38.0867174350234
"LID 12307",NA,231,40,NA,566.87691131876,NA,NA,NA,"LERNZmp",170.396308844897,-44.6736474838553
"LID 12591","Parangi",47.242599487305,17.733,9.14889529382425,11.6988,1.5477745379503,"Concave",1070310.96263391,"LERNZmp",174.811364655054,-38.0365152193102
"LID 12830","Harihari",17.504114151001,9.724,4.53448916014753,18.0936,1.39895798852762,"Convex",820452.330680453,"LERNZmp",174.723546017033,-38.2101964227414
"LID 12872",NA,11,6.5,NA,23.1016560485233,NA,NA,NA,"LERNZmp",174.725784980572,-38.1829196979376
"LID 12873","Numiti",7.839216709137,10.509,5.06970466187151,17.6868,1.44724654920683,"Convex",896668.524135891,"LERNZmp",174.729274334578,-38.1784424247237
"LID 13278","Rotongaio",357.99838256836,21.458,10.4873307826428,34.5128,1.46621271078052,"Convex",3619471.49835193,"LERNZmp",176.057626850253,-38.8074342829131
"LID 13437","Lake William",97,9.93,4.38549684450017,7.3148,1.32492351797588,"Convex",320790.323181499,"LERNZmp",175.310499220323,-40.1228149703786
"LID 13447","Lake Dudding",87.502998352051,10.503,2.95957754032191,9.1228,0.845352053790892,"Convex",269996.339848487,"LERNZmp",175.280088317548,-40.1004723958889
"LID 13467","Waiparera",31.194999694824,5.155,2.7814696780411,108.09,1.61870204347687,"Concave",3006490.57499462,"LERNZmp",173.180373458731,-34.9446091003302
"LID 13857",NA,244.705337524414,16.5,NA,116.559289324768,NA,NA,NA,"LERNZmp",175.692834336944,-38.3109128632213
"LID 13873",NA,240.450637817383,38,NA,539.030733686179,NA,NA,NA,"LERNZmp",175.818572781985,-38.4314771581496
"LID 13876",NA,202.650192260742,61,NA,400.572465387924,NA,NA,NA,"LERNZmp",175.787410645224,-38.3683518512979
"LID 13915",NA,360.045379638672,27,NA,65.5394067532172,NA,NA,NA,"LERNZmp",176.187071319765,-38.6311587559219
"LID 13957","Atiamuri",257,21.84,2.04496777549236,207.1932,0.280902166963236,"Convex",4237034.17301144,"LERNZmp",176.026925490517,-38.3830820694783
"LID 13970","Ohakuri",294,37.48,14.6772745496051,492.456,1.17480852851695,"Convex",72279119.1560034,"LERNZmp",176.105404034441,-38.4120697989682
"LID 14071","Tutaeinanga",491.5026550293,12.603,5.152304889465,2.9396,1.22644724814687,"Convex",151457.154530713,"LERNZmp",176.322153428196,-38.3329643073021
"LID 14179","Ngapouri",472,25.86,11.9616597647524,21.55,1.38766354579495,"Convex",2577737.67930415,"LERNZmp",176.335456405644,-38.3386887897942
"LID 14205",NA,389.626403808594,14,NA,2.38637353649652,NA,NA,NA,"LERNZmp",176.374144227907,-38.3223050922042
"LID 14208","Ngahewa",412,7.82,3.42783749320374,8.2364,1.31502717130578,"Convex",282330.407290233,"LERNZmp",176.373547214153,-38.3151698975347
"LID 14290","Okaro",411.34521484375,19.945,11.7244613199534,30.466,1.76351887489898,"Concave",3571974.385737,"LERNZmp",176.394604762157,-38.2984735749449
"LID 14405","Mangakaware",28,4.63,2.69045452663746,14.9396,1.74327507125538,"Concave",401943.14446153,"LERNZmp",175.220360995967,-37.9339493108257
"LID 14406","Ngaroto",34.123992919922,3.314,1.92189386416604,99.788,1.73979529043396,"Concave",1917819.44917401,"LERNZmp",175.288986802412,-37.9534867704816
"LID 14408","Ruatuna",37.99242401123,2.402,1.59916327526245,13.0684,1.99728968600639,"Concave",208985.053464398,"LERNZmp",175.290588373245,-37.92729061441
"LID 14418","Mangahia",32,2.35,1.49254719390058,9.1572,1.90537939646882,"Concave",136675.531639864,"LERNZmp",175.228110651701,-37.8794993295113
"LID 14420","Lake Milicich",44,2.28,1.57235116480407,1.9084,2.0688831115843,"Concave",30006.7496291208,"LERNZmp",175.248947286992,-37.8852574065592
"LID 14422","Maratoto",52,7.22,3.50780894286553,16.1972,1.45753834191089,"Convex",568166.830093816,"LERNZmp",175.304328223643,-37.8856607404855
"LID 14424","Rotopiko E (Lake Serpentine E)",52,3.25,2.21692300913861,1.194,2.0463904699741,"Concave",26470.060729115,"LERNZmp",175.320095541549,-37.9506697187314
"LID 14427","Rotomanuka S",50,5.03,2.72568029790537,6.914,1.62565425322388,"Concave",188453.535797178,"LERNZmp",175.319827722745,-37.9283728677235
"LID 14428","Rotomanuka",49,8.23,3.69497153350319,18.0244,1.34689120297808,"Convex",665996.449084749,"LERNZmp",175.315678361099,-37.9256234612755
"LID 14631","Korekai",312.29705810547,5.237,3.47281597743464,2.2884,1.98939238730264,"Concave",79471.9208276143,"LERNZmp",175.95097176036,-38.1276177272351
"LID 14680",NA,95.1609191894531,30.5,NA,770.268746693851,NA,NA,NA,"LERNZmp",175.658834497831,-37.9924243861819
"LID 14720","Te Koo Utu",41.476463317871,3.656,2.69036879602106,4.7196,2.20763303831049,"Concave",126974.64569701,"LERNZmp",175.46996933949,-37.8888205163371
"LID 15020","Waiwhakareke (Horseshoe Lake)",33.466289520264,4.076,2.56436438955476,3.3328,1.88741245551135,"Concave",85465.1363750809,"LERNZmp",175.22552059539,-37.7707172706167
"LID 15022","Rotoroa (Hamilton Lake)",37.99751663208,5.798,2.41284425506695,53.6716,1.24845339172143,"Convex",1295012.11720251,"LERNZmp",175.274424225863,-37.7983724504363
"LID 15032","Pikopiko",19.789812088013,2.95,2.0060416301114,5.1744,2.04004233570651,"Concave",103800.618108484,"LERNZmp",175.192193330783,-37.6618838442685
"LID 15034","Areare",21,4.58,2.48388697533751,32.8548,1.62700020218614,"Concave",816076.097973189,"LERNZmp",175.201284436536,-37.6687005223878
"LID 15035","Whakatangi (Lake A)",26.648847579956,3.679,2.46950313584709,2.7084,2.01372911322133,"Concave",66884.0229312826,"LERNZmp",175.258262654179,-37.6892026844811
"LID 15037","Kainui (Lake D)",24.502042770386,6.152,3.57400720547189,28.9976,1.74285136807797,"Concave",1036376.31341392,"LERNZmp",175.232982611826,-37.6773204253576
"LID 15038","Kaituna (Lake B)",21.385467529297,1.155,0.772609519497313,12.4072,2.00677797272029,"Concave",95859.2083030706,"LERNZmp",175.247153948212,-37.6796403488787
"LID 15312","Tikitapu  (Blue Lake)",417.990234375,31.62,21.3911556227455,145.0664,2.02952140633259,"Concave",31031379.3803144,"LERNZmp",176.331782457988,-38.1948584702543
"LID 15325","Okareka",355.30038452148,38.72,22.0582464653559,335.968,1.70905835217117,"Concave",74108649.4847269,"LERNZmp",176.360947868361,-38.1711769197764
"LID 15621","Rotokakahi (Green Lake)",396.85061645508,34.221,21.3097292460139,435.7808,1.86812739949276,"Concave",92863708.5861132,"LERNZmp",176.313047282013,-38.2179396525435
"LID 16939","Waipu",18.520999908447,3.841,1.72803013726561,6.2084,1.34967206763781,"Convex",107283.023041998,"LERNZmp",175.15620226016,-40.0435626085456
"LID 17286","Poroa",351.99655151367,2.017,1.11423622260345,8.0024,1.65726755964817,"Concave",89165.6394776188,"LERNZmp",175.8677093548,-39.7514093550479
"LID 17761","Wainui",33.494998931885,10.465,4.65854460566814,4.8296,1.335464292117,"Convex",224989.070275349,"LERNZmp",173.88158122967,-36.1012271040505
"LID 18717","Ngakapua S",39.694999694824,5.455,2.17613146168632,9.9296,1.19677257287974,"Convex",216081.149619605,"LERNZmp",173.194545760866,-35.0191979615367
"LID 18718","Ngakapua N",39.694999694824,8.345,3.09467912269414,4.3024,1.11252694644487,"Convex",133145.474574793,"LERNZmp",173.19114933113,-35.0193181726272
"LID 18719","Rotokawau [Aupouri]",40.895000457764,3.335,1.3816255714897,16.0128,1.24284159354396,"Convex",221236.939511503,"LERNZmp",173.205945381526,-35.0189021437004
"LID 18933","Pauri",45.880001068115,12.45,5.47801714359041,18.5832,1.32000413098564,"Convex",1017990.88182769,"LERNZmp",175.099940604844,-39.9782343723143
"LID 18934","Wiritoa",45.388000488281,16.788,4.90046333904012,21.2132,0.875708245003595,"Convex",1039545.08903726,"LERNZmp",175.089091639201,-39.9748849245578
"LID 19575","Waipara",75.794998168945,4.415,3.20222973967402,2.3676,2.17592054790987,"Concave",75815.9913165222,"LERNZmp",172.854348042187,-34.5860839087088
"LID 19624","Namunamu",192,18,6.54620837906701,12.3632,1.0910347298445,"Convex",809320.834320813,"LERNZmp",175.464505165739,-39.8856063467416
"LID 21367","Rotoaira",670.00274658203,14.863,8.29720314781845,1570.542,1.6747365567823,"Concave",130311060.261811,"LERNZmp",175.710347652586,-39.0495987427252
"LID 21370","Rotopounamu",712.99169921875,7.792,4.66451988345434,83.9288,1.7958880454778,"Concave",3914875.56394462,"LERNZmp",175.738356884184,-39.0266249994403
"LID 21383","Otamangakau",611,8.3,1.82218121265766,159.0172,0.658619715418432,"Convex",2897581.54329426,"LERNZmp",175.624388791171,-39.0022761620894
"LID 21871","Tomarata Lake",0.1,5.23,4.11821549765629,14.2952,2.36226510381814,"Concave",588707.141820962,"LERNZmp",174.649865137943,-36.1936455715312
"LID 21917","Taharoa",69.455001831055,38.735,17.1130044470765,197.6524,1.32539081815489,"Convex",33824264.0017535,"LERNZmp",173.647183331255,-35.8062287423048
"LID 21918","Kaiiwi",69.604843139648,15.635,8.78442332503943,27.578,1.6855305388627,"Concave",2422568.26457937,"LERNZmp",173.653309369534,-35.8147231950446
"LID 21926","Waikere",77.451637268066,29.462,11.9458083303942,29.1324,1.21639484730102,"Convex",3480100.66604375,"LERNZmp",173.630428400535,-35.7986549746944
"LID 22999","Spectacle Lake",0.1,5.46,3.04843185913026,39.912,1.67496255996168,"Concave",1216690.12361607,"LERNZmp",174.629349138341,-36.1820326305738
"LID 23000","Slipper Lake",0.1,5.36,3.37411954586938,8.5936,1.88849974582241,"Concave",289958.337293831,"LERNZmp",174.63037181123,-36.1721015219664
"LID 23681","Rotoroa",92.144996643066,4.075,1.99329540830541,6.9204,1.46745674231073,"Convex",137944.015436368,"LERNZmp",174.039959375835,-36.251720592473
"LID 23682","Lake Heather",29.385000228882,6.685,2.4846867217299,12.5108,1.11504265747041,"Convex",310854.186382184,"LERNZmp",173.193297762749,-35.0513073408402
"LID 23690","Lake Carrot",40.205001831055,7.935,2.74895479296013,3.4136,1.03930237919098,"Convex",93838.3208124871,"LERNZmp",173.187387519668,-35.0223452615961
"LID 23691","Ngatu",33.275001525879,6.265,2.21282755858115,55.8056,1.05961415414899,"Convex",1234881.69603156,"LERNZmp",173.198395456918,-35.0320179633439
"LID 23721","Omapere",234.28500366211,1.985,1.6399377215345,1207.6236,2.47849529702947,"Concave",19804274.9505529,"LERNZmp",173.795301714805,-35.3479999481308
"LID 24415","Waiporohita",10.77499961853,3.445,2.1309077169782,6.8112,1.85565258372557,"Concave",145140.386418819,"LERNZmp",173.348359466109,-34.900575377225
"LID 24511","Waihopo",37.735000610352,3.745,0.979065728741701,10.8608,0.784298314078799,"Convex",106334.370667179,"LERNZmp",173.04224466177,-34.7564339206491
"LID 24620","Wahakari",46.115001678467,12.705,6.25460365315273,87.0544,1.47688397949297,"Convex",5444907.68263019,"LERNZmp",172.924343042128,-34.6521431886497
"LID 24628","Morehurehu",17.77499961853,14.815,8.36647636843021,35.0668,1.69419028722853,"Concave",2933855.53516469,"LERNZmp",172.99637030604,-34.6415129696717
"LID 24633","Te Kahika",4.2049999237061,11.075,5.8703235594202,14.0648,1.5901553659829,"Concave",825649.267985332,"LERNZmp",173.001108250846,-34.6237478794787
"LID 25972","Mata Kopae",33.799999237061,1.14,0.54180529148428,19.646,1.42580339864284,"Convex",106443.067565002,"LERNZmp",173.268024338177,-42.7806808291469
"LID 26031",NA,405.396850585938,17,NA,85.2678880071174,NA,NA,NA,"LERNZmp",167.01971582537,-46.0290552917609
"LID 26111","Hauroko",155,462,153.746659248862,7137.4375,0.998354930187414,"Convex",10973571712.2255,"LERNZmp",167.30528717096,-45.9592210880122
"LID 26477","Lake Tennyson",1102,58.62,35.2602980443787,231.2152,1.80451883543391,"Concave",81527168.6439062,"LERNZmp",172.727829480133,-42.199218973036
"LID 26887",NA,852.980773925781,145,NA,2359.81336188697,NA,NA,NA,"LERNZmp",172.640628323764,-41.854402171821
"LID 27762","Rotoiti",620,89.17,45.8509806362072,965.7112,1.54259214880141,"Concave",442788055.313685,"LERNZmp",172.841532239199,-41.8353821794655
"LID 28543","Lake George",3.1016397476196,1.102,0.727775009781397,99.66,1.98123868361542,"Concave",725300.57474814,"LERNZmp",167.858316864191,-46.3575968934295
"LID 29244","Monowai",198,161,77.6080236045825,3301.8676,1.44611224107918,"Convex",2562514186.40006,"LERNZmp",167.473551600431,-45.8565800939713
"LID 35662",NA,58.8585014343262,1,NA,103.70123626474,NA,NA,NA,"LERNZmp",176.702271423714,-39.7814557650127
"LID 36980","Waikopiro",154.73300170898,15.853,8.30009170602258,11.1192,1.57069798259432,"Concave",922903.796976062,"LERNZmp",176.894695385424,-39.2351055442502
"LID 36981",NA,159.814392089844,42,NA,178.644532283268,NA,NA,NA,"LERNZmp",176.893112915456,-39.2226008427556
"LID 38421",NA,4,9.6,NA,393.691121576682,NA,NA,NA,"LERNZmp",170.919262019175,-42.7969497040907
"LID 38502",NA,134,197.8,NA,1473.34797850018,NA,NA,NA,"LERNZmp",171.147024932664,-42.8351269023856
"LID 38665",NA,123.27010345459,25,NA,140.687201510328,NA,NA,NA,"LERNZmp",171.573905848408,-42.6030504820936
"LID 38955",NA,144.789672851562,6.7,NA,212.610884099414,NA,NA,NA,"LERNZmp",171.500459696562,-42.6989649989299
"LID 38974",NA,89,109.3,NA,4057.36167179625,NA,NA,NA,"LERNZmp",171.44048770454,-42.6162094531808
"LID 39297",NA,679.548706054688,38.5,NA,52.4784605626895,NA,NA,NA,"LERNZmp",172.16878745251,-42.7328404261741
"LID 39356","Lake Taylor",588,41.92,23.5051463897652,206.7376,1.68214310995457,"Concave",48593975.5226873,"LERNZmp",172.230121445084,-42.7659695655467
"LID 39357",NA,822.054260253906,21,NA,107.974134056318,NA,NA,NA,"LERNZmp",172.250197414842,-42.761085052331
"LID 39621",NA,249,16.8,NA,499.944664560289,NA,NA,NA,"LERNZmp",171.657126471425,-42.4430193633613
"LID 40050",NA,582,248,NA,4996.80659726418,NA,NA,NA,"LERNZmp",177.107075774371,-38.7590760313033
"LID 40069","Rerewhakaaitu [Awaatua]",435.81057739258,35.541,17.4425754536678,11.49,1.47232003491752,"Convex",2004151.91962643,"LERNZmp",176.488760594058,-38.2882197689946
"LID 40071","Rerewhakaaitu",437.24346923828,18.863,8.4315513421931,520.7408,1.34096665570584,"Convex",43906527.9117471,"LERNZmp",176.500635694419,-38.2940122688057
"LID 40102","Rotoma",318.41439819336,89.134,46.1596915913686,1050.4404,1.55360552397632,"Concave",484880048.991138,"LERNZmp",176.589913003059,-38.0436971833408
"LID 40124",NA,91.9878082275391,52.1,NA,218.093461169069,NA,NA,NA,"LERNZmp",176.817802241515,-38.1460454039236
"LID 40188","Rotoehu",302.96783447266,22.698,16.8150057798388,796.5248,2.22244326987032,"Concave",133935691.15785,"LERNZmp",176.528014259104,-38.0143535523502
"LID 40396",NA,892,75,NA,406.943842679746,NA,NA,NA,"LERNZmp",177.170056185856,-38.7128182005652
"LID 41299","Lake Emma",653.20501708984,3.135,1.96064412932084,167.6876,1.87621447781899,"Concave",3287757.08499901,"LERNZmp",171.108280115264,-43.635573201649
"LID 41305","Lake Clearwater",667,19.38,2.49535345841241,204.6508,0.38627762514124,"Convex",5106760.81546866,"LERNZmp",171.04329380389,-43.603386401441
"LID 41306","Lake Camp",675.90100097656,19.021,5.66863895191574,47.1256,0.894060083893971,"Convex",2671380.117924,"LERNZmp",171.05629901809,-43.6149414288885
"LID 41314","Waahi",8,4.95,1.73127268415817,627.588,1.04925617221707,"Convex",10865259.6130546,"LERNZmp",175.128522494492,-37.5606186781872
"LID 41354","Lake Roundabout",656.00299072266,1.753,0.861676321237663,13.2028,1.47463146817626,"Convex",113765.401340366,"LERNZmp",171.095152896793,-43.6229655854131
"LID 41772","Hooker Lake",894.38897705078,149.529,61.0671360004543,151.056,1.22518981603142,"Convex",92245572.9568462,"LERNZmp",170.109404176047,-43.6778139607212
"LID 43649","Lake Vincent",16.842380523682,8.912,4.81925031439474,16.3352,1.62227905556376,"Concave",787234.177357009,"LERNZmp",168.823183978059,-46.5924027534525
"LID 43668","The Reservoir",9.4909830093384,9.591,6.08852214421384,50.578,1.90444859062053,"Concave",3079452.73010048,"LERNZmp",169.062798218145,-46.6547785622725
"LID 44391",NA,2.38754463195801,16,NA,608.110039730406,NA,NA,NA,"LERNZmp",170.095371874417,-46.0135741800223
"LID 44694",NA,0,1,NA,183.743610972325,NA,NA,NA,"LERNZmp",170.109587496397,-45.9689412742066
"LID 45151",NA,388,29.8,NA,1818.03962372601,NA,NA,NA,"LERNZmp",169.959580208368,-45.8462497328382
"LID 45514","Ohau",520,129,78.4599070196639,5795.3276,1.8246490004573,"Concave",4547008646.44492,"LERNZmp",169.849096974531,-44.2313133102929
"LID 45683",NA,300.201171875,12,NA,8.95890621427167,NA,NA,NA,"LERNZmp",169.965501713407,-43.4393164444305
"LID 45724","Maori Lakes W",618.48297119141,2.843,1.494873496345,9.8556,1.57742542702603,"Concave",147328.752305778,"LERNZmp",171.167756410802,-43.5699885431504
"LID 45726","Maori Lakes W minor",618.49798583984,1.878,1.00973306974246,1.792,1.61299212418924,"Concave",18094.4166097849,"LERNZmp",171.172354286268,-43.5703454770492
"LID 45818","Kawaupaka",0.1,21.44,11.363450312798,10.156,1.59003502511166,"Concave",1154072.01376777,"LERNZmp",174.458525595841,-36.8949769175733
"LID 45819","Wainamu",0.1,13.49,7.17416264258772,15.5384,1.59544017255472,"Concave",1114750.08805585,"LERNZmp",174.466924579437,-36.889207235016
"LID 45935","Okaihau",0.1,11.41,5.6116411838048,4.4656,1.47545342256042,"Convex",250593.448703987,"LERNZmp",174.44020531981,-36.8092413139941
"LID 46564","Pukaki",529,103.4,50.8753197462339,17419.7448,1.47607310675727,"Convex",8862350865.97795,"LERNZmp",170.174409456368,-44.0478623467585
"LID 46723","Moeraki",6,43.09,18.033507505655,242.1032,1.25552384583349,"Convex",43659698.743431,"LERNZmp",169.278706716328,-43.7280311271934
"LID 46725","Paringa",16,55.78,26.6469672951165,474.894,1.43314632279221,"Convex",126544848.86647,"LERNZmp",169.41426143119,-43.7143955502169
"LID 46835","Tasman Lake",758.73822021484,280.328,111.604112007957,803.7616,1.19435923640832,"Convex",897030996.34095,"LERNZmp",170.182823230179,-43.68046833005
"LID 46959","Mapourika",82,78.88,51.4856161295977,889.3764,1.95812434569971,"Concave",457900919.251235,"LERNZmp",170.196425322685,-43.3124529880455
"LID 46964",NA,104.307327270508,61,NA,244.678716956361,NA,NA,NA,"LERNZmp",170.262603349101,-43.2491276209097
"LID 47067","Wawahi Waka (Lake Alabaster)",18,75.52,41.3267640470747,533.9768,1.64168819042934,"Concave",220675332.20212,"LERNZmp",168.1562464254,-44.5194622159673
"LID 47193","Lake Alexandrina",712,28.61,13.5617132733763,650.8332,1.42206011255257,"Convex",88264132.4719397,"LERNZmp",170.452311338314,-43.9382221479876
"LID 47198","Lake McGregor",710,12.92,5.33047615608536,47.1496,1.23772666162973,"Convex",2513298.18568962,"LERNZmp",170.47023295377,-43.9354261332128
"LID 47228","Tekapo",710,120,73.2189852556084,9480.3572,1.83047463139021,"Concave",6941421340.44701,"LERNZmp",170.526951428472,-43.8973487767936
"LID 47404",NA,1035,97,51.9580819403782,145.7924,1.60695098784675,"Concave",75750934.654844,"LERNZmp",170.499547494297,-43.4769895633519
"LID 47406",NA,1142.9584960938,149.768,82.8267425933672,227.6148,1.65910092796927,"Concave",188525924.500408,"LERNZmp",170.527389536382,-43.4567194951571
"LID 47491","Matahi (Lake Ianthe)",27,31.68,10.3085588911221,470.074,0.976189288932013,"Convex",48457855.1218531,"LERNZmp",170.623865132919,-43.0571507272419
"LID 47579",NA,1,4.1,NA,557.67633501299,NA,NA,NA,"LERNZmp",172.734495903931,-43.8071404182375
"LID 47859","Maori Lakes E",616.77398681641,1.244,0.701427349876623,9.7176,1.69154505597256,"Concave",68161.9041516107,"LERNZmp",171.182461908961,-43.5733962395066
"LID 47892","Lake Heron",689.4990234375,37.289,10.3146577722191,697.314,0.829841865339836,"Convex",71925552.6977716,"LERNZmp",171.196964644964,-43.4684068415217
"LID 48177","Te Waihora (Lake Ellesmere)",0.58105129003525,2.501,1.5138912850178,19842.82,1.81594316475546,"Concave",300398722.681769,"LERNZmp",172.506749132484,-43.7872029057398
"LID 48451","Lake Coleridge",507,200,97.055208863788,3759.0672,1.45582813295682,"Convex",3648370522.29015,"LERNZmp",171.493826871996,-43.2895445209042
"LID 48597","Lake Lyndon",830,19.68,9.51740786251612,70.4004,1.45082436928599,"Convex",6700293.2048428,"LERNZmp",171.700582627518,-43.3023596071625
"LID 48660","Lake Pearson",611,16.67,7.30829458588271,203.2348,1.315229979463,"Convex",14852997.8850296,"LERNZmp",171.779551101269,-43.1048530635763
"LID 48663","Lake Grasmere",584,13.37,6.74860421968489,62.6744,1.51427170224792,"Concave",4229647.20306219,"LERNZmp",171.773425786766,-43.0613028397117
"LID 49090","Ohinewai",8,4.67,2.5039731618291,17.5292,1.60854806969749,"Concave",438926.463483346,"LERNZmp",175.172560509381,-37.4944751401668
"LID 49180","Whangape",6,2.9,1.80877928175986,1219.3404,1.87115098113089,"Concave",22055176.5293278,"LERNZmp",175.047948424488,-37.4758933746937
"LID 49186","Rotongaro",5.1130032539368,3.303,2.13866413984717,285.0872,1.94247424145974,"Concave",6097057.71369438,"LERNZmp",175.119819586137,-37.4873497227314
"LID 49187","Rotongaroiti",5.1599998474121,0.86,0.429099219702641,45.988,1.49685774314875,"Convex",197334.14915685,"LERNZmp",175.106902541255,-37.4779224011454
"LID 49194","Waiwhata W",5.2606391906738,0.741,0.468711044269756,2.4204,1.89761556384517,"Concave",11344.6821155052,"LERNZmp",175.094320941262,-37.4638359583035
"LID 49200","Hakanoa",10,1.68,1.01903207962521,57.3824,1.81970014218787,"Concave",584745.064058856,"LERNZmp",175.168455598864,-37.5529828487832
"LID 49291","Otamatearoa",112,4.62,2.593680164529,6.0512,1.68420789904481,"Concave",156948.774115979,"LERNZmp",174.686055376928,-37.2955345421472
"LID 49294","Whatihua",0.1,10.96,3.48393463956429,3.43,0.953631744406285,"Convex",119498.958137055,"LERNZmp",174.670331257583,-37.2753663937014
"LID 49295","Puketi",96.504425048828,6.874,2.76199946644115,5.3736,1.20541146338718,"Convex",148418.803328682,"LERNZmp",174.676910494901,-37.279272177303
"LID 49307","Pehiakura Iti (Pehiakura Small)",0.1,12.41,5.42198857326011,2.3496,1.31071440127158,"Convex",127395.04351732,"LERNZmp",174.616242965949,-37.1853897519328
"LID 49309","Pehiakura Nui (Pehiakura Big)",0.1,12.05,6.1173795004067,4.8384,1.52299904574441,"Concave",295983.289747678,"LERNZmp",174.614631054625,-37.182228673267
"LID 49583",NA,4.8099999427795,3.02,0.945420149164625,5.6608,0.939159088574131,"Convex",53518.3438039111,"LERNZmp",174.718875675469,-36.8192128821401
"LID 49884","Kereta",0.1,1.28,0.465310623601636,27.312,1.09057177406633,"Convex",127085.637518079,"LERNZmp",174.281106452831,-36.5933487123461
"LID 49895","Te Kanae",0.1,18.95,9.48532819341488,5.5764,1.50163507019761,"Concave",528939.841377587,"LERNZmp",174.289173681752,-36.5771411140816
"LID 50151","Pupuke",5.539999961853,58.98,28.6442926337116,108.236,1.45698334861198,"Convex",31003436.5750241,"LERNZmp",174.766048524145,-36.7806259958903
"LID 50269","Kuwakatai",0.1,15.82,5.47459730042779,29.262,1.03816636544143,"Convex",1601976.66205118,"LERNZmp",174.244306915498,-36.5268333000832
"LID 50270","Rototoa",0.1,26.06,12.2682807224427,104.4612,1.41231167180845,"Convex",12815593.2620323,"LERNZmp",174.237938106291,-36.5111532983791
"LID 50314","Mokeno",10.314999580383,6.505,2.53869850974238,154.704,1.17080638420095,"Convex",3927468.14251186,"LERNZmp",174.058077790397,-36.3442544069497
"LID 50320","Karaka",9.585000038147,5.775,3.47130123826721,12.1624,1.80327337052842,"Concave",422193.541803011,"LERNZmp",174.039434033576,-36.3133551209482
"LID 50345","Rototuna",32.992889404297,5.363,3.03433913768171,16.078,1.6973741213957,"Concave",487861.046556465,"LERNZmp",174.14120076999,-36.3302781978403
"LID 50371","Kahuparere",40.674999237061,7.615,3.80430298841347,6.4948,1.49874050758246,"Convex",247081.870491478,"LERNZmp",174.15802999172,-36.3695464143785
"LID 50373","Kanono",43.764999389648,15.505,7.43312225218613,74.2196,1.43820488594378,"Convex",5516833.60308354,"LERNZmp",174.142729149568,-36.3624977787647
"LID 50401","Humuhumu",45.415000915527,15.155,6.40164478602593,129.114,1.26723420376627,"Convex",8265419.64902952,"LERNZmp",174.129295674788,-36.3275867846815
"LID 50403","Rotootuauru (Lake Swan)",24.135000228882,7.225,2.18032527130478,33.6576,0.905325372168077,"Convex",733845.158514679,"LERNZmp",173.195894467747,-35.0593379465554
"LID 50413","Rotokawau [Pouto]",53.075000762939,12.895,4.42374114298138,28.5808,1.02917591538923,"Convex",1264340.60859322,"LERNZmp",174.147298404527,-36.3470443493009
"LID 50782",NA,7,1.6,NA,3432.41499875148,NA,NA,NA,"LERNZmp",175.199289287884,-37.4411916566325
"LID 52566","Te Anau",204,417,136.304997675384,35419,0.980611494067511,"Convex",48277867126.6443,"LERNZmp",167.724195121059,-45.181672040857
"LID 53338",NA,640.591064453125,40,NA,163.325717824429,NA,NA,NA,"LERNZmp",168.174043159503,-45.3025587040356
"LID 53353","North Mavora Lake",615,81.17,44.543209371298,1065.1052,1.64629331173948,"Concave",474432039.260582,"LERNZmp",168.168683944038,-45.226043657111
"LID 53532","Wakatipu",308,380,219.408365038678,29238.1128,1.73217130293693,"Concave",64150865262.6444,"LERNZmp",168.516374300668,-45.0885802357658
"LID 53707",NA,469.975433349609,27,NA,24.5527833108733,NA,NA,NA,"LERNZmp",168.732304342612,-45.0034468089717
"LID 53851",NA,506.162872314453,84.3,NA,272.267213116692,NA,NA,NA,"LERNZmp",168.091359450821,-44.87520599818
"LID 54132","Diamond Lake",338,24.61,14.5164742659741,182.924,1.769582397315,"Concave",26554115.3862904,"LERNZmp",168.374939709249,-44.739930029915
"LID 54190",NA,336.724884033203,33.3,NA,270.997180519638,NA,NA,NA,"LERNZmp",168.808482282444,-44.9811052948055
"LID 54356","Whakatipu Waitai (Lake Mckerrow)",1,121,71.551609705188,2347.404,1.77400685219474,"Concave",1679605348.28397,"LERNZmp",168.058744102429,-44.4522605574665
"LID 54672","Wanaka",279,311,164.462452574549,19381.0196,1.58645452644259,"Concave",31874500168.114,"LERNZmp",169.134493906527,-44.5073892102871
"LID 54730","Rotoiti",283.22259521484,101.303,35.6928608143904,3382.428,1.05701294574861,"Convex",1207285318.18697,"LERNZmp",176.439993497604,-38.0332118780065
"LID 54731","Okataina",311.20367431641,84.794,48.6342622432891,1078.3248,1.72067347606985,"Concave",524435311.066422,"LERNZmp",176.402602642879,-38.1286103361799
"LID 54732","Tarawera",300.77066040039,94.291,60.3273813079518,4128.3252,1.9193999843448,"Concave",2490510485.03626,"LERNZmp",176.418056468465,-38.2057428922394
"LID 54733","Rotomahana",347.01452636719,125.195,63.9469997362007,907.4004,1.53233754709535,"Concave",580255331.394284,"LERNZmp",176.439751342213,-38.2652487079321
"LID 54734","Taupomoana (Lake Taupo)",357,158,95.7603587368334,61743.766,1.81823465956013,"Concave",59126051819.2309,"LERNZmp",175.945371426013,-38.80417772222
"LID 54735","Manapouri",179,444,165.028799974157,13593.875,1.11505945928484,"Convex",22433808782.4869,"LERNZmp",167.560675809465,-45.5224039734009
"LID 54736","Hawea",348,384,159.307992150365,15379.9872,1.24459368867473,"Convex",24501548801.3032,"LERNZmp",169.326199689955,-44.4421889128346
"LID 54738","Lake Sumner",525,134,77.5132369621927,1409.7828,1.73537097676551,"Concave",1092768282.41624,"LERNZmp",172.209959700612,-42.7049729296178
"LID 54742","Waituna",0.046165127307177,4.266,1.36198044892658,1366.896,0.957792158176216,"Convex",18616856.2771594,"LERNZmp",168.586179449132,-46.5722268198275
